time(millisecond),datetime(utc),latitude,longitude,height_above_takeoff(feet),height_above_ground_at_drone_location(feet),ground_elevation_at_drone_location(feet),altitude_above_seaLevel(feet),speed(mph),distance(feet),satellites,gpslevel,voltage(v),max_altitude(feet),max_ascent(feet),max_speed(mph),max_distance(feet), xSpeed(mph), ySpeed(mph), zSpeed(mph), compass_heading(degrees), pitch(degrees), roll(degrees),isPhoto,isVideo,rc_elevator,rc_aileron,rc_throttle,rc_rudder,gimbal_heading(degrees),gimbal_pitch(degrees),battery_percent,voltageCell1,voltageCell2,voltageCell3,voltageCell4,voltageCell5,voltageCell6,current(A),battery_temperature(f),altitude(feet),ascent(feet),flycStateRaw,flycState,message
0,2019-08-16 21:55:24,37.9445389267301,-91.7606908365973,0,Available with any HD 360 subscription,Available with any HD 360 subscription,1106.4338536474,0,0,12,5,0,1106.4338536474,0,0,0,0,0,0,234.1, 1.4, -1,0,0,1024,1024,1024,1024,234.3,0,99,4.211,4.201,4.184,0,0,0,0,32,1106.4338536474,0,41,Motors_Started,Setting new Return-To-Home altitude to 30m (98 ft). Data Recorder File Index is 37. Setting new Maximum Flight Altitude to 120m (394 ft) GEO: You are in a Warning Zone (Airport). Fly with caution.
100,2019-08-16 21:55:24,37.9445390000916,-91.7606907494402,0,,,1106.4338536474,0,0.036677822696,12,5,0,1106.4338536474,0,0,0.036677822696,0,0,0,234.1, 1.5, -1,0,0,1024,1024,1024,1024,234.3,0,99,4.211,4.201,4.184,0,0,0,0,32,1106.4338536474,0,41,Motors_Started,
200,2019-08-16 21:55:24,37.9445389717096,-91.7606907798896,0,,,1106.4338536474,0,0.0231414705568,12,5,0,1106.4338536474,0,0,0.036677822696,0,0,0,234.1, 1.5, -1,0,0,1024,1024,1024,1024,234.3,0,99,4.211,4.201,4.184,0,0,0,0,32,1106.4338536474,0,41,Motors_Started,
300,2019-08-16 21:55:24,37.9445387381712,-91.7606910037562,0,,,1106.4338536474,0,0.0839402914,12,5,0,1106.4338536474,0,0,0.0839402914,0,0,0,234.1, 1.5, -1,0,0,1024,1024,1024,1024,234.3,0,99,4.211,4.201,4.184,0,0,0,0,32,1106.4338536474,0,41,Motors_Started,
400,2019-08-16 21:55:24,37.9445386898918,-91.7606910489906,0,,,1106.4338536474,0,0.105835961392,12,5,0,1106.4338536474,0,0,0.105835961392,0,0,0,234.1, 1.5, -1,0,0,1024,1024,1024,1024,234.3,0,99,4.211,4.201,4.184,0,0,0,0,32,1106.4338536474,0,41,Motors_Started,
500,2019-08-16 21:55:24,37.944538773951,-91.7606912540525,0,,,1106.4338536474,0,0.132415358568,12,5,0,1106.4338536474,0,0,0.132415358568,0,0,0,234.1, 1.5, -1,0,0,1024,1024,1024,1024,234.3,0,99,4.211,4.201,4.184,0,0,0,0,32,1106.4338536474,0,41,Motors_Started,
600,2019-08-16 21:55:24,37.9445387383316,-91.7606913154014,0,,,1106.4338536474,0,0.153958994428,12,5,0,1106.4338536474,0,0,0.153958994428,0,0,0,234.1, 1.5, -1,0,0,1024,1024,1024,1024,234.2,0,99,4.211,4.201,4.184,0,0,0,0,32,1106.4338536474,0,41,Motors_Started,
700,2019-08-16 21:55:24,37.9445386654102,-91.7606913425875,0,,,1106.4338536474,0,0.174026252288,12,5,0,1106.4338536474,0,0,0.174026252288,0,0,0,234.1, 1.5, -1,0,0,1024,1024,1024,1024,234.3,0,99,4.211,4.201,4.184,0,0,0,0,32,1106.4338536474,0,41,Motors_Started,
800,2019-08-16 21:55:24,37.9445386271222,-91.7606914003764,0,,,1106.4338536474,0,0.195606305472,12,5,0,1106.4338536474,0,0,0.195606305472,0,0,0,234.1, 1.6, -1,0,0,1024,1024,1024,1024,234.3,0,99,4.211,4.201,4.184,0,0,0,0,32,1106.4338536474,0,41,Motors_Started,
900,2019-08-16 21:55:25,37.9445387038662,-91.7606914339607,0,,,1106.4338536474,0,0.190138457528,12,5,0,1106.4338536474,0,0,0.195606305472,0,0,0,234.1, 1.6, -1,0,0,1024,1024,1024,1024,234.3,0,99,4.211,4.201,4.184,0,0,0,0,32,1106.4338536474,0,41,Motors_Started,
1000,2019-08-16 21:55:25,37.9445386766982,-91.7606914893058,0,,,1106.4338536474,0,0.20878281508,12,5,0,1106.4338536474,0,0,0.20878281508,0,0,0,234.1, 1.7, -1,0,0,1024,1024,1024,1024,234.3,0,99,4.211,4.201,4.184,0,0,0,0,32,1106.4338536474,0,41,Motors_Started,
1100,2019-08-16 21:55:25,37.9445385868236,-91.7606915271647,0,,,1106.4338536474,0,0.234218183348,12,5,0,1106.4338536474,0,0,0.234218183348,0,0,0,234, 2.2, -1.5,0,0,1024,1024,1024,1024,234.3,0,99,4.211,4.201,4.184,0,0,0,0,32,1106.4338536474,0,41,Motors_Started,
1200,2019-08-16 21:55:25,37.9445385558322,-91.7606915720804,0,,,1106.4338536474,0,0.251183078904,12,5,0,1106.4338536474,0,0,0.251183078904,0,0,0,233.9, 2.6, -1.6,0,0,1024,1024,1024,1024,234.3,0,99,4.211,4.201,4.184,0,0,0,0,32,1106.4338536474,0,41,Motors_Started,
1300,2019-08-16 21:55:25,37.9445386254239,-91.7606917422069,0,,,1106.4338536474,0,0.28280512716,12,5,0,1106.4338536474,0,0,0.28280512716,0,0,0,233.8, 2.8, -1.8,0,0,1024,1024,1024,1024,234.3,0,99,4.211,4.201,4.184,0,0,0,0,32,1106.4338536474,0,41,Motors_Started,
1400,2019-08-16 21:55:25,37.9445386082327,-91.7606917981905,0,,,1106.4338536474,0,0.300084655272,12,5,0,1106.4338536474,0,0,0.300084655272,0,0,0,233.8, 2.7, -1.7,0,0,1024,1024,1024,1024,234.3,0,99,4.211,4.201,4.184,0,0,0,0,32,1106.4338536474,0,41,Motors_Started,
1500,2019-08-16 21:55:25,37.9445385100818,-91.7606918215638,0,,,1106.4338536474,0,0.321593186144,12,5,0,1106.4338536474,0,0,0.321593186144,0,0,0,233.9, 2.8, -1.7,0,0,1024,1024,1024,1024,234.2,0,99,4.211,4.201,4.184,0,0,0,0,32,1106.4338536474,0,11,AutoTakeoff,
1600,2019-08-16 21:55:25,37.9445384886557,-91.7606918732739,0,,,1106.4338536474,0,0.33839896096,12,5,0,1106.4338536474,0,0,0.33839896096,0,0,0,233.9, 2.8, -1.8,0,0,1024,1024,1024,1024,234.3,0,99,4.211,4.201,4.184,0,0,0,0,32,1106.4338536474,0,11,AutoTakeoff,
1700,2019-08-16 21:55:25,37.9445385465024,-91.7606919121651,0,,,1106.4338536474,0,0.33913714996,12,5,12.596,1106.4338536474,0,0,0.33913714996,0,0,0,233.9, 2.9, -1.9,0,0,1024,1024,1024,1024,234.2,0,99,4.211,4.201,4.184,0,0,0,0,32,1106.4338536474,0,11,AutoTakeoff,
1800,2019-08-16 21:55:25,37.9445385335902,-91.7606919614728,0,,,1106.4338536474,0,0.35401247852,12,5,12.596,1106.4338536474,0,0,0.35401247852,0,0,0,233.9, 2.5, -1.7,0,0,1024,1024,1024,1024,234.2,0,99,4.211,4.201,4.184,0,0,0,0,32,1106.4338536474,0,11,AutoTakeoff,
1900,2019-08-16 21:55:25,37.9445385704537,-91.7606921563093,0,,,1106.4338536474,0,0.4013451572,12,5,12.596,1106.4338536474,0,0,0.4013451572,0,0,0,233.9, 2.1, -1.6,0,0,1024,1024,1024,1024,234.2,0,99,4.211,4.201,4.184,0,0,0,0,32,1106.4338536474,0,11,AutoTakeoff,
2000,2019-08-16 21:55:26,37.9445385633047,-91.7606922226806,0,,,1106.4338536474,0,0.42027232316,12,5,12.596,1106.4338536474,0,0,0.42027232316,0,0,0,233.9, 1.8, -1.6,0,0,1024,1024,1024,1024,234.2,0,99,4.211,4.201,4.184,0,0,0,0,32,1106.4338536474,0,11,AutoTakeoff,
2100,2019-08-16 21:55:26,37.9445384327079,-91.7606924112648,0,,,1106.4338536474,0,0.48760500248,12,5,12.596,1106.4338536474,0,0,0.48760500248,0,0,0,233.8, 1.4, -1.5,0,0,1024,1024,1024,1024,234.2,0,99,4.211,4.201,4.184,0,0,0,0,32,1106.4338536474,0,11,AutoTakeoff,
2200,2019-08-16 21:55:26,37.9445384097795,-91.7606924949621,0,,,1106.4338536474,0,0.5130741634,12,5,12.596,1106.4338536474,0,0,0.5130741634,0,0,0,233.6, 1.3, -1.8,0,0,1024,1024,1024,1024,234.2,0,99,4.211,4.201,4.184,0,0,0,0,32,1106.4338536474,0,11,AutoTakeoff,
2300,2019-08-16 21:55:26,37.9445384282806,-91.7606924988245,0,,,1106.4338536474,0,0.51166996388,12,5,12.596,1106.4338536474,0,0,0.5130741634,0,0,-0.223694,233.3, 1.4, -3.3,0,0,1024,1024,1024,1024,234.2,0,99,4.211,4.201,4.184,0,0,0,0,32,1106.4338536474,0,11,AutoTakeoff,
2400,2019-08-16 21:55:26,37.9445383762166,-91.7606925428943,0,,,1106.4338536474,0,0.53043964952,12,5,12.596,1106.4338536474,0,0,0.53043964952,0,0,-0.223694,233, 1.8, -4.8,0,0,1024,1024,1024,1024,234.2,0,99,4.211,4.201,4.184,0,0,0,0,32,1106.4338536474,0,11,AutoTakeoff,
2500,2019-08-16 21:55:26,37.944538332324,-91.760692618481,0,,,1106.4338536474,0.223694,0.55666996532,12,5,12.596,1106.4338536474,0,0.223694,0.55666996532,0,0.223694,-0.447388,233.3, 0.7, -2.1,0,0,1024,1024,1024,1024,234.2,0,99,4.211,4.201,4.184,0,0,0,0,32,1106.4338536474,0,11,AutoTakeoff,
2600,2019-08-16 21:55:26,37.9445382189079,-91.7606925799931,0,,,1106.4338536474,0.223694,0.5641896506,12,5,12.596,1106.4338536474,0,0.223694,0.5641896506,-0.223694,0.223694,-0.671082,233.4, 0, 2.6,0,0,1024,1024,1024,1024,234.2,0,99,4.211,4.201,4.184,0,0,0,0,32,1106.4338536474,0,11,AutoTakeoff,
2700,2019-08-16 21:55:26,37.9445380621751,-91.7606923333524,0.328084,,,1106.7619376474,0,0.53381235304,12,5,12.596,1106.7619376474,0.328084,0.223694,0.5641896506,0,0,-0.671082,233.3, -0.1, 3.9,0,0,1024,1024,1024,1024,234.1,0,99,4.211,4.201,4.184,0,0,0,0,32,1106.7619376474,0.328084,11,AutoTakeoff,
2800,2019-08-16 21:55:26,37.9445380216961,-91.760692368703,0.328084,,,1106.7619376474,0,0.55077757668,12,5,12.561,1106.7619376474,0.328084,0.223694,0.5641896506,0,0,-0.671082,233.1, -0.2, 2.2,0,0,1024,1024,1024,1024,234.1,0,99,4.203,4.189,4.169,0,0,0,0,32,1106.7619376474,0.328084,11,AutoTakeoff,
2900,2019-08-16 21:55:26,37.9445380248949,-91.7606919740381,0.328084,,,1106.7619376474,0,0.46407809884,12,5,12.561,1106.7619376474,0.328084,0.223694,0.5641896506,0,0,-0.671082,233.1, 0, -0.9,0,0,1024,1024,1024,1024,234.1,0,99,4.203,4.189,4.169,0,0,0,0,32,1106.7619376474,0.328084,11,AutoTakeoff,
3000,2019-08-16 21:55:27,37.9445380313602,-91.7606920168172,0.656168,,,1107.0900216474,0,0.47119752164,13,5,12.561,1107.0900216474,0.656168,0.223694,0.5641896506,0,0,-0.671082,233.1, 0, -2.2,0,0,1024,1024,1024,1024,234.1,0,98,4.203,4.189,4.169,0,0,0,0,32,1107.0900216474,0.656168,11,AutoTakeoff,Home Point recorded. Return-to-Home Altitude:98FT
3100,2019-08-16 21:55:27,37.9445379738567,-91.7606920724783,0.656168,,,1107.0900216474,0,0.49730316552,13,5,12.561,1107.0900216474,0.656168,0.223694,0.5641896506,0,0,-0.671082,233, 0, -1.3,0,0,1024,1024,1024,1024,234,0,98,4.203,4.189,4.169,0,0,0,0,32,1107.0900216474,0.656168,11,AutoTakeoff,
3200,2019-08-16 21:55:27,37.9445379476511,-91.7606920878228,0.656168,,,1107.0900216474,0,0.50715552804,12,5,12.561,1107.0900216474,0.656168,0.223694,0.5641896506,0,0,-0.671082,233, 0.4, -0.2,0,0,1024,1024,1024,1024,234,0,98,4.203,4.189,4.169,0,0,0,0,32,1107.0900216474,0.656168,11,AutoTakeoff,
3300,2019-08-16 21:55:27,37.9445383678171,-91.7606922529938,0.984252,,,1107.4181056474,0,0.45570211432,12,5,12.561,1107.4181056474,0.984252,0.223694,0.5641896506,0,0,-0.671082,233.1, 0.2, 0.3,0,0,1024,1024,1114,1024,234,0,98,4.203,4.189,4.169,0,0,0,0,32,1107.4181056474,0.984252,11,AutoTakeoff,
3400,2019-08-16 21:55:27,37.9445384118673,-91.7606922849779,0.984252,,,1107.4181056474,0,0.45711287552,12,5,12.561,1107.4181056474,0.984252,0.223694,0.5641896506,0,0,-0.894776,233.2, 0, -0.8,0,0,1024,1024,1256,1024,234,0,98,4.203,4.189,4.169,0,0,0,0,32,1107.4181056474,0.984252,11,AutoTakeoff,
3500,2019-08-16 21:55:27,37.9445382569381,-91.7606922056516,1.312336,,,1107.7461896474,0,0.46355316444,12,5,12.561,1107.7461896474,1.312336,0.223694,0.5641896506,0,0,-0.894776,233.4, 0, -2.5,0,0,1024,1024,1358,1024,233.9,0,98,4.203,4.189,4.169,0,0,0,0,32,1107.7461896474,1.312336,11,AutoTakeoff,
3600,2019-08-16 21:55:27,37.9445382696514,-91.7606922036997,1.312336,,,1107.7461896474,0,0.4606463402,11,4,12.561,1107.7461896474,1.312336,0.223694,0.5641896506,0,0,-0.894776,233.5, 0.3, -1.8,0,0,1024,1024,1492,1024,233.9,0,98,4.203,4.189,4.169,0,0,0,0,32,1107.7461896474,1.312336,11,AutoTakeoff,
3700,2019-08-16 21:55:27,37.9445382412731,-91.7606918333578,1.312336,,,1107.7461896474,0,0.38051838488,11,4,12.561,1107.7461896474,1.312336,0.223694,0.5641896506,0,0,-1.342164,233.6, 0.1, 0,0,0,1024,1024,1630,1024,233.9,0,98,4.203,4.189,4.169,0,0,0,0,32,1107.7461896474,1.312336,11,AutoTakeoff,
3800,2019-08-16 21:55:27,37.9445382549217,-91.7606917733855,1.64042,,,1108.0742736474,0,0.36431759696,12,4,12.207,1108.0742736474,1.64042,0.223694,0.5641896506,0,0,-1.565858,233.4, -0.2, 0.9,0,0,1024,1024,1684,1024,233.9,0,98,4.087,4.069,4.051,0,0,0,0,32,1108.0742736474,1.64042,11,AutoTakeoff,
3900,2019-08-16 21:55:27,37.9445382223169,-91.7606917684785,1.968504,,,1108.4023576474,0,0.37140421136,12,4,12.207,1108.4023576474,1.968504,0.223694,0.5641896506,0,0,-2.23694,233.2, -0.6, -0.5,0,0,1024,1024,1684,1024,233.9,0,98,4.087,4.069,4.051,0,0,0,0,32,1108.4023576474,1.968504,11,AutoTakeoff,
4000,2019-08-16 21:55:28,37.9445382593662,-91.7606917531846,2.296588,,,1108.7304416474,0,0.35893701936,12,4,12.207,1108.7304416474,2.296588,0.223694,0.5641896506,0,0,-2.908022,233.1, -0.1, -1.8,0,0,1024,1024,1684,1024,233.9,0,98,4.087,4.069,4.051,0,0,0,0,32,1108.7304416474,2.296588,11,AutoTakeoff,
4100,2019-08-16 21:55:28,37.9445382957759,-91.7606920484581,2.952756,,,1109.3866096474,0,0.41781825484,12,4,12.207,1109.3866096474,2.952756,0.223694,0.5641896506,0,0,-3.579104,233.2, 0.2, -1.8,0,0,1024,1024,1684,1024,233.9,0,98,4.087,4.069,4.051,0,0,0,0,32,1109.3866096474,2.952756,11,AutoTakeoff,
4200,2019-08-16 21:55:28,37.9445382970445,-91.7606920191544,3.28084,,,1109.7146936474,0,0.4105479134,12,4,12.207,1109.7146936474,3.28084,0.223694,0.5641896506,0,0,-4.026492,233.1, -0.1, -0.8,0,0,1024,1024,1684,1024,233.9,0,98,4.087,4.069,4.051,0,0,0,0,32,1109.7146936474,3.28084,11,AutoTakeoff,
4300,2019-08-16 21:55:28,37.9445387685969,-91.7606921263236,3.937008,,,1110.3708616474,0,0.3755413506,12,4,12.207,1110.3708616474,3.937008,0.223694,0.5641896506,0,0,-4.250186,233, -0.7, 0.3,0,0,1024,1024,1684,1024,233.9,0,98,4.087,4.069,4.051,0,0,0,0,32,1110.3708616474,3.937008,6,P-GPS,
4400,2019-08-16 21:55:28,37.9445388042054,-91.7606921057968,4.593176,,,1111.0270296474,0,0.36790355508,12,4,12.207,1111.0270296474,4.593176,0.223694,0.5641896506,0,0,-4.47388,233.2, -1, 0.7,0,0,1024,1024,1684,1024,233.9,0,98,4.087,4.069,4.051,0,0,0,0,32,1111.0270296474,4.593176,6,P-GPS,
4500,2019-08-16 21:55:28,37.9445385220578,-91.7606910535564,5.249344,,,1111.6831976474,0,0.16029856156,12,4,12.207,1111.6831976474,5.249344,0.223694,0.5641896506,0,0,-4.47388,233.8, -0.7, 0.4,0,0,1024,1024,1684,1024,233.9,0,98,4.087,4.069,4.051,0,0,0,0,32,1111.6831976474,5.249344,6,P-GPS,
4600,2019-08-16 21:55:28,37.9445385281534,-91.7606909823715,5.905512,,,1112.3393656474,0,0.151348101956,12,4,12.207,1112.3393656474,5.905512,0.223694,0.5641896506,0,0,-4.697574,233.8, 0, 0,0,0,1024,1024,1684,1024,233.9,0,98,4.087,4.069,4.051,0,0,0,0,32,1112.3393656474,5.905512,6,P-GPS,
4700,2019-08-16 21:55:28,37.9445385121792,-91.7606905447632,6.889764,,,1113.3236176474,0,0.172993115772,12,4,12.207,1113.3236176474,6.889764,0.223694,0.5641896506,0,0,-4.697574,233.8, 0.1, 0,0,0,1024,1024,1684,1024,233.9,0,98,4.087,4.069,4.051,0,0,0,0,32,1113.3236176474,6.889764,6,P-GPS,
4800,2019-08-16 21:55:28,37.944538519812,-91.7606904425335,7.545932,,,1113.9797856474,0,0.186806764508,12,4,11.908,1113.9797856474,7.545932,0.223694,0.5641896506,0,0,-4.697574,233.7, -0.3, 0,0,0,1024,1024,1684,1024,233.9,0,98,3.988,3.967,3.953,0,0,0,0,32,1113.9797856474,7.545932,6,P-GPS,
4900,2019-08-16 21:55:28,37.9445386600215,-91.7606906842781,8.2021,,,1114.6359536474,0,0.106722116276,12,4,11.908,1114.6359536474,8.2021,0.223694,0.5641896506,0,0,-4.47388,233.6, -0.5, 0,0,0,1024,1024,1684,1024,233.9,0,98,3.988,3.967,3.953,0,0,0,0,32,1114.6359536474,8.2021,6,P-GPS,
5000,2019-08-16 21:55:29,37.9445386576748,-91.760690620775,8.858268,,,1115.2921216474,0,0.11615649978,11,4,11.908,1115.2921216474,8.858268,0.223694,0.5641896506,0,0,-4.47388,233.7, 0.2, 0,0,0,1024,1024,1684,1024,233.9,0,98,3.988,3.967,3.953,0,0,0,0,32,1115.2921216474,8.858268,6,P-GPS,
5100,2019-08-16 21:55:29,37.9445385914487,-91.7606909164922,9.514436,,,1115.9482896474,0,0.12446850792,11,4,11.908,1115.9482896474,9.514436,0.223694,0.5641896506,0,0,-4.47388,233.6, 0.8, -0.3,0,0,1024,1024,1684,1024,233.9,0,98,3.988,3.967,3.953,0,0,0,0,32,1115.9482896474,9.514436,6,P-GPS,
5200,2019-08-16 21:55:29,37.9445385681587,-91.7606908779469,10.170604,,,1116.6044576474,0,0.131364505516,11,4,11.908,1116.6044576474,10.170604,0.223694,0.5641896506,0,0,-4.47388,233.6, 0.8, 0.1,0,0,1024,1024,1684,1024,233.9,0,98,3.988,3.967,3.953,0,0,0,0,32,1116.6044576474,10.170604,6,P-GPS,
5300,2019-08-16 21:55:29,37.9445383799537,-91.7606912566766,10.826772,,,1117.2606256474,0,0.23324967938,11,4,11.908,1117.2606256474,10.826772,0.223694,0.5641896506,0,0,-4.250186,233.6, 0.8, 1.6,0,0,1024,1024,1684,1024,233.9,0,98,3.988,3.967,3.953,0,0,0,0,32,1117.2606256474,10.826772,6,P-GPS,
5400,2019-08-16 21:55:29,37.9445383592693,-91.7606912690634,11.48294,,,1117.9167936474,0,0.241552173084,11,4,11.908,1117.9167936474,11.48294,0.223694,0.5641896506,0,0,-4.47388,233.7, 0.6, 1.8,0,0,1024,1024,1684,1024,233.9,0,98,3.988,3.967,3.953,0,0,0,0,32,1117.9167936474,11.48294,6,P-GPS,
5500,2019-08-16 21:55:29,37.9445386116513,-91.7606918938204,12.139108,,,1118.5729616474,0,0.325184065524,11,4,11.908,1118.5729616474,12.139108,0.223694,0.5641896506,0,0,-4.47388,233.8, 1, 0,0,0,1024,1024,1684,1024,233.9,0,98,3.988,3.967,3.953,0,0,0,0,32,1118.5729616474,12.139108,6,P-GPS,
5600,2019-08-16 21:55:29,37.9445386649532,-91.7606920218515,12.795276,,,1119.2291296474,0,0.35414699296,11,4,11.908,1119.2291296474,12.795276,0.223694,0.5641896506,0,0,-4.47388,233.9, 1, -2.2,0,0,1024,1024,1684,1024,233.9,0,98,3.988,3.967,3.953,0,0,0,0,32,1119.2291296474,12.795276,6,P-GPS,
5700,2019-08-16 21:55:29,37.9445380239549,-91.76069274357,13.451444,,,1119.8852976474,0,0.63995080788,11,4,11.908,1119.8852976474,13.451444,0.223694,0.63995080788,0,0,-4.47388,233.8, 1.3, -3.2,0,0,1024,1024,1684,1024,233.9,0,98,3.988,3.967,3.953,0,0,0,0,32,1119.8852976474,13.451444,6,P-GPS,
5800,2019-08-16 21:55:29,37.9445379743279,-91.7606928944715,14.107612,,,1120.5414656474,0,0.68652889336,10,4,12.062,1120.5414656474,14.107612,0.223694,0.68652889336,0,0,-4.250186,233.8, 1.4, -2.2,0,0,1024,1024,1684,1024,233.9,0,98,4.039,4.02,4.003,0,0,0,0,32,1120.5414656474,14.107612,6,P-GPS,
5900,2019-08-16 21:55:29,37.944537819318,-91.7606929726426,14.76378,,,1121.1976336474,0,0.73550527288,10,4,12.062,1121.1976336474,14.76378,0.223694,0.73550527288,0,0,-4.250186,233.9, 1.5, 0.1,0,0,1024,1024,1684,1024,233.9,0,98,4.039,4.02,4.003,0,0,0,0,32,1121.1976336474,14.76378,6,P-GPS,
6000,2019-08-16 21:55:30,37.9445377529358,-91.7606930922679,15.419948,,,1121.8538016474,0,0.77756892252,11,4,12.062,1121.8538016474,15.419948,0.223694,0.77756892252,0,0,-4.250186,234, 1.4, 0.9,0,0,1024,1024,1684,1024,233.9,0,98,4.039,4.02,4.003,0,0,0,0,32,1121.8538016474,15.419948,6,P-GPS,
6100,2019-08-16 21:55:30,37.944537505219,-91.7606933232021,16.076116,,,1122.5099696474,0,0.8836614456,11,4,12.062,1122.5099696474,16.076116,0.223694,0.8836614456,0,0,-4.250186,233.9, 1.2, 0.2,0,0,1024,1024,1684,1024,233.9,0,98,4.039,4.02,4.003,0,0,0,0,32,1122.5099696474,16.076116,6,P-GPS,
6200,2019-08-16 21:55:30,37.9445374715164,-91.7606934760482,16.732284,,,1123.1661376474,0,0.92662076456,11,4,12.062,1123.1661376474,16.732284,0.223694,0.92662076456,0,0,-4.47388,233.9, 1, -1,0,0,1024,1024,1684,1024,233.9,0,98,4.039,4.02,4.003,0,0,0,0,32,1123.1661376474,16.732284,6,P-GPS,
6300,2019-08-16 21:55:30,37.9445375697284,-91.7606931240873,17.388452,,,1123.8223056474,0,0.82359254604,11,4,12.062,1123.8223056474,17.388452,0.223694,0.92662076456,0,0,-4.47388,233.8, 1.1, -1.8,0,0,1024,1024,1684,1024,233.9,0,98,4.039,4.02,4.003,0,0,0,0,32,1123.8223056474,17.388452,6,P-GPS,
6400,2019-08-16 21:55:30,37.944537541511,-91.7606932213781,18.04462,,,1124.4784736474,0,0.85219490916,11,4,12.062,1124.4784736474,18.04462,0.223694,0.92662076456,0,0,-4.47388,233.7, 1, -1.8,0,0,1024,1024,1684,1024,233.9,0,98,4.039,4.02,4.003,0,0,0,0,32,1124.4784736474,18.04462,6,P-GPS,
6500,2019-08-16 21:55:30,37.9445370407233,-91.7606931358881,18.700788,,,1125.1346416474,0,0.9545439938,11,4,12.062,1125.1346416474,18.700788,0.223694,0.9545439938,0,0,-4.47388,233.9, 0.9, -2,0,0,1024,1024,1684,1024,233.9,0,98,4.039,4.02,4.003,0,0,0,0,32,1125.1346416474,18.700788,6,P-GPS,
6600,2019-08-16 21:55:30,37.9445369391388,-91.7606931708972,19.356956,,,1125.7908096474,0,0.98841210512,11,4,12.062,1125.7908096474,19.356956,0.223694,0.98841210512,0,0,-4.47388,233.9, 0.3, -1.9,0,0,1024,1024,1684,1024,233.9,0,98,4.039,4.02,4.003,0,0,0,0,32,1125.7908096474,19.356956,6,P-GPS,
6700,2019-08-16 21:55:30,37.9445366991993,-91.7606927480679,20.013124,,,1126.4469776474,0,0.98131236736,11,4,12.062,1126.4469776474,20.013124,0.223694,0.98841210512,0,0,-4.47388,233.9, 0.2, -0.7,0,0,1024,1024,1684,1024,233.9,0,98,4.039,4.02,4.003,0,0,0,0,32,1126.4469776474,20.013124,6,P-GPS,
6800,2019-08-16 21:55:30,37.9445365489078,-91.7606927137007,20.669292,,,1127.1031456474,0,1.02192588572,12,4,12.027,1127.1031456474,20.669292,0.223694,1.02192588572,0,0,-4.47388,233.8, 0.3, 0,0,0,1024,1024,1684,1024,233.9,0,98,4.027,4.009,3.991,0,0,0,0,32,1127.1031456474,20.669292,6,P-GPS,
6900,2019-08-16 21:55:30,37.9445368283294,-91.76069306803,21.32546,,,1127.7593136474,0,0.99917654116,12,4,12.027,1127.7593136474,21.32546,0.223694,1.02192588572,0,0,-4.47388,233.9, 0.2, -0.1,0,0,1024,1024,1684,1024,233.9,0,98,4.027,4.009,3.991,0,0,0,0,32,1127.7593136474,21.32546,6,P-GPS,
7000,2019-08-16 21:55:31,37.9445367216742,-91.7606930641666,21.981628,,,1128.4154816474,0,1.02860239512,12,4,12.027,1128.4154816474,21.981628,0.223694,1.02860239512,0,0,-4.47388,234, 0, 0,0,0,1024,1024,1684,1024,233.9,0,98,4.027,4.009,3.991,0,0,0,0,32,1128.4154816474,21.981628,6,P-GPS,
7100,2019-08-16 21:55:31,37.9445366144419,-91.7606921756093,22.637796,,,1129.0716496474,0,0.9274442554,12,4,12.027,1129.0716496474,22.637796,0.223694,1.02860239512,0,0,-4.250186,234, -0.2, 0.4,0,0,1024,1024,1684,1024,233.9,0,98,4.027,4.009,3.991,0,0,0,0,32,1129.0716496474,22.637796,6,P-GPS,
7200,2019-08-16 21:55:31,37.944536511597,-91.7606921060939,23.293964,,,1129.7278176474,0,0.95386485992,12,4,12.027,1129.7278176474,23.293964,0.223694,1.02860239512,0,0,-4.250186,234, -0.3, 0.3,0,0,1024,1024,1684,1024,233.9,0,98,4.027,4.009,3.991,0,0,0,0,32,1129.7278176474,23.293964,6,P-GPS,
7300,2019-08-16 21:55:31,37.9445364622328,-91.7606925776633,23.950132,,,1130.3839856474,0,1.0292979332,12,4,12.027,1130.3839856474,23.950132,0.223694,1.0292979332,0,0,-4.250186,233.9, 0, -0.4,0,0,1024,1024,1684,1024,233.9,0,98,4.027,4.009,3.991,0,0,0,0,32,1130.3839856474,23.950132,6,P-GPS,
7400,2019-08-16 21:55:31,37.9445363721381,-91.7606925894825,24.6063,,,1131.0401536474,0,1.05974740924,12,4,12.027,1131.0401536474,24.6063,0.223694,1.05974740924,0,0,-4.250186,233.8, 0.2, -1,0,0,1024,1024,1684,1024,233.9,0,98,4.027,4.009,3.991,0,0,0,0,32,1131.0401536474,24.6063,6,P-GPS,
7500,2019-08-16 21:55:31,37.9445368707263,-91.7606928567152,25.262468,,,1131.6963216474,0,0.94896328496,12,4,12.027,1131.6963216474,25.262468,0.223694,1.05974740924,0,0,-4.250186,233.8, 0.4, -1,0,0,1024,1024,1684,1024,233.9,0,98,4.027,4.009,3.991,0,0,0,0,32,1131.6963216474,25.262468,6,P-GPS,
7600,2019-08-16 21:55:31,37.9445368253817,-91.7606928842893,25.918636,,,1132.3524896474,0,0.96690619892,14,4,12.027,1132.3524896474,25.918636,0.223694,1.05974740924,0,0,-4.250186,233.8, 0.7, -0.7,0,0,1024,1024,1684,1024,233.9,0,98,4.027,4.009,3.991,0,0,0,0,32,1132.3524896474,25.918636,6,P-GPS,
7700,2019-08-16 21:55:31,37.9445364584683,-91.7606931155426,26.574804,,,1133.0086576474,0,1.11396985192,14,4,12.027,1133.0086576474,26.574804,0.223694,1.11396985192,0,0,-4.250186,233.9, 0.4, -0.2,0,0,1024,1024,1684,1024,233.9,0,98,4.027,4.009,3.991,0,0,0,0,32,1133.0086576474,26.574804,6,P-GPS,
7800,2019-08-16 21:55:31,37.9445363829006,-91.7606931531187,27.230972,,,1133.6648256474,0,1.14264439352,14,4,12.018,1133.6648256474,27.230972,0.223694,1.14264439352,0,0,-4.250186,233.9, 0.1, -0.3,0,0,1024,1024,1684,1024,233.9,0,98,4.024,4.005,3.989,0,0,0,0,32,1133.6648256474,27.230972,6,P-GPS,
7900,2019-08-16 21:55:31,37.9445362260519,-91.7606931810561,27.88714,,,1134.3209936474,0,1.19411749228,14,4,12.018,1134.3209936474,27.88714,0.223694,1.19411749228,0,0,-4.250186,233.9, 0, -0.5,0,0,1024,1024,1684,1024,233.9,0,98,4.024,4.005,3.989,0,0,0,0,32,1134.3209936474,27.88714,6,P-GPS,
8000,2019-08-16 21:55:32,37.9445361402531,-91.7606932260896,28.543308,,,1134.9771616474,0,1.22729006552,15,4,12.018,1134.9771616474,28.543308,0.223694,1.22729006552,0,0,-4.250186,233.9, 0.1, -0.1,0,0,1024,1024,1684,1024,233.9,0,98,4.024,4.005,3.989,0,0,0,0,32,1134.9771616474,28.543308,6,P-GPS,
8100,2019-08-16 21:55:32,37.9445357111182,-91.7606936177584,29.199476,,,1135.6333296474,0,1.42012471736,15,4,12.018,1135.6333296474,29.199476,0.223694,1.42012471736,0,0,-4.47388,233.8, 0.4, 0.4,0,0,1024,1024,1684,1024,233.9,0,98,4.024,4.005,3.989,0,0,0,0,32,1135.6333296474,29.199476,6,P-GPS,
8200,2019-08-16 21:55:32,37.9445355999273,-91.7606937184937,29.855644,,,1136.2894976474,0,1.46997051948,15,4,12.018,1136.2894976474,29.855644,0.223694,1.46997051948,0,0,-4.47388,233.8, 0.7, 0.3,0,0,1024,1024,1684,1024,233.9,0,98,4.024,4.005,3.989,0,0,0,0,32,1136.2894976474,29.855644,6,P-GPS,
8300,2019-08-16 21:55:32,37.9445352408695,-91.7606939186137,30.511812,,,1136.9456656474,0,1.61083666572,15,4,12.018,1136.9456656474,30.511812,0.223694,1.61083666572,0,0,-4.47388,233.8, 0.7, -0.4,0,0,1024,1024,1684,1024,233.9,0,98,4.024,4.005,3.989,0,0,0,0,32,1136.9456656474,30.511812,6,P-GPS,
8400,2019-08-16 21:55:32,37.9445351186704,-91.7606940451138,31.16798,,,1137.6018336474,0,1.66810372792,15,4,12.018,1137.6018336474,31.16798,0.223694,1.66810372792,0,0,-4.47388,233.9, 0.5, -1.2,0,0,1024,1024,1684,1024,233.9,0,98,4.024,4.005,3.989,0,0,0,0,32,1137.6018336474,31.16798,6,P-GPS,
8500,2019-08-16 21:55:32,37.9445349717452,-91.760694166879,31.824148,,,1138.2580016474,0,1.73214244388,15,4,12.018,1138.2580016474,31.824148,0.223694,1.73214244388,0,0,-4.47388,233.8, 0.3, -1.5,0,0,1024,1024,1684,1024,233.9,0,98,4.024,4.005,3.989,0,0,0,0,32,1138.2580016474,31.824148,6,P-GPS,
8600,2019-08-16 21:55:32,37.9445348359713,-91.7606942718682,32.480316,,,1138.9141696474,0,1.79012144836,15,4,12.018,1138.9141696474,32.480316,0.223694,1.79012144836,0,0,-4.47388,233.8, 0.5, -1.3,0,0,1024,1024,1684,1024,233.9,0,98,4.024,4.005,3.989,0,0,0,0,32,1138.9141696474,32.480316,6,P-GPS,
8700,2019-08-16 21:55:32,37.9445346093887,-91.7606940021439,33.136484,,,1139.5703376474,0,1.81954402148,15,4,12.018,1139.5703376474,33.136484,0.223694,1.81954402148,0,0,-4.47388,233.9, 0.2, -1.1,0,0,1024,1024,1684,1024,233.9,0,98,4.024,4.005,3.989,0,0,0,0,32,1139.5703376474,33.136484,6,P-GPS,
8800,2019-08-16 21:55:32,37.9445344517655,-91.7606940420369,33.792652,,,1140.2265056474,0,1.87517066368,15,4,12.018,1140.2265056474,33.792652,0.223694,1.87517066368,0,0,-4.47388,233.9, 0, -0.8,0,0,1024,1024,1684,1024,233.9,0,98,4.024,4.005,3.989,0,0,0,0,32,1140.2265056474,33.792652,6,P-GPS,
8900,2019-08-16 21:55:32,37.9445348257961,-91.7606944145724,34.44882,,,1140.8826736474,0,1.81617131796,15,4,11.98,1140.8826736474,34.44882,0.223694,1.87517066368,0,0,-4.250186,233.9, -0.1, -0.4,0,0,1024,1024,1684,1024,233.9,0,98,4.013,3.993,3.974,0,0,0,0,32,1140.8826736474,34.44882,6,P-GPS,
9000,2019-08-16 21:55:33,37.9445347150298,-91.7606944752695,35.104988,,,1141.5388416474,0,1.8593832616,15,4,11.98,1141.5388416474,35.104988,0.223694,1.87517066368,0,0,-4.250186,233.9, -0.2, 0.2,0,0,1024,1024,1684,1024,233.9,0,98,4.013,3.993,3.974,0,0,0,0,32,1141.5388416474,35.104988,6,P-GPS,
9100,2019-08-16 21:55:33,37.9445347565369,-91.7606941860711,35.761156,,,1142.1950096474,0,1.80102696052,15,4,11.98,1142.1950096474,35.761156,0.223694,1.87517066368,0,0,-4.250186,233.9, 0, 0.2,0,0,1024,1024,1684,1024,233.9,0,98,4.013,3.993,3.974,0,0,0,0,32,1142.1950096474,35.761156,6,P-GPS,
9200,2019-08-16 21:55:33,37.9445346651061,-91.7606942445097,36.417324,,,1142.8511776474,0,1.83820872024,15,4,11.98,1142.8511776474,36.417324,0.223694,1.87517066368,0,0,-4.250186,233.9, 0.2, 0,0,0,1024,1024,1684,1024,233.9,0,98,4.013,3.993,3.974,0,0,0,0,32,1142.8511776474,36.417324,6,P-GPS,
9300,2019-08-16 21:55:33,37.9445350394855,-91.760694504526,37.073492,,,1143.5073456474,0,1.76782814056,15,4,11.98,1143.5073456474,37.073492,0.223694,1.87517066368,0,0,-4.250186,233.9, 0.2, -0.5,0,0,1024,1024,1684,1024,233.9,0,98,4.013,3.993,3.974,0,0,0,0,32,1143.5073456474,37.073492,6,P-GPS,
9400,2019-08-16 21:55:33,37.9445350063942,-91.7606945813606,37.72966,,,1144.1635136474,0,1.79074152712,15,4,11.98,1144.1635136474,37.72966,0.223694,1.87517066368,0,0,-4.250186,233.9, 0, -1,0,0,1024,1024,1684,1024,233.9,0,98,4.013,3.993,3.974,0,0,0,0,32,1144.1635136474,37.72966,6,P-GPS,
9500,2019-08-16 21:55:33,37.9445352887156,-91.7606944556973,38.385828,,,1144.8196816474,0,1.68703745556,15,4,11.98,1144.8196816474,38.385828,0.223694,1.87517066368,0,0,-4.250186,233.8, 0, -0.7,0,0,1024,1024,1684,1024,233.9,0,98,4.013,3.993,3.974,0,0,0,0,32,1144.8196816474,38.385828,6,P-GPS,
9600,2019-08-16 21:55:33,37.9445352763198,-91.7606945035236,39.041996,,,1145.4758496474,0,1.69910766592,15,4,11.98,1145.4758496474,39.041996,0.223694,1.87517066368,0,0,-4.250186,233.7, -0.1, -0.3,0,0,1024,1024,1684,1024,233.9,0,98,4.013,3.993,3.974,0,0,0,0,32,1145.4758496474,39.041996,6,P-GPS,
9700,2019-08-16 21:55:33,37.9445349980373,-91.7606946580825,39.698164,,,1146.1320176474,0,1.8065289292,15,4,11.98,1146.1320176474,39.698164,0.223694,1.87517066368,0,0,-4.250186,233.7, 0, 0,0,0,1024,1024,1684,1024,233.9,0,98,4.013,3.993,3.974,0,0,0,0,32,1146.1320176474,39.698164,6,P-GPS,
9800,2019-08-16 21:55:33,37.9445349705421,-91.7606947158633,40.354332,,,1146.7881856474,0,1.82461948096,15,4,11.98,1146.7881856474,40.354332,0.223694,1.87517066368,0,0,-4.250186,233.7, 0.5, 0.5,0,0,1024,1024,1684,1024,233.9,0,98,4.013,3.993,3.974,0,0,0,0,32,1146.7881856474,40.354332,6,P-GPS,
9900,2019-08-16 21:55:33,37.9445351999891,-91.760694611351,41.0105,,,1147.4443536474,0,1.74021659112,15,4,11.98,1147.4443536474,41.0105,0.223694,1.87517066368,0,0,-4.250186,233.8, 0.2, 0.3,0,0,1024,1024,1684,1024,233.9,0,98,4.013,3.993,3.974,0,0,0,0,32,1147.4443536474,41.0105,6,P-GPS,
10000,2019-08-16 21:55:34,37.9445352353366,-91.7606946674402,41.666668,,,1148.1005216474,0,1.74033470136,15,4,11.98,1148.1005216474,41.666668,0.223694,1.87517066368,0,0,-4.250186,233.8, 0, -0.2,0,0,1024,1024,1684,1024,233.9,0,98,4.013,3.993,3.974,0,0,0,0,32,1148.1005216474,41.666668,6,P-GPS,
10100,2019-08-16 21:55:34,37.9445351789414,-91.76069489043,42.322836,,,1148.7566896474,0,1.79726711788,15,4,11.98,1148.7566896474,42.322836,0.223694,1.87517066368,0,0,-4.250186,233.9, -0.3, -1,0,0,1024,1024,1684,1024,233.9,0,98,4.013,3.993,3.974,0,0,0,0,32,1148.7566896474,42.322836,6,P-GPS,
10200,2019-08-16 21:55:34,37.9445352176916,-91.7606949677259,42.979004,,,1149.4128576474,0,1.8011319474,15,4,11.98,1149.4128576474,42.979004,0.223694,1.87517066368,0,0,-4.250186,233.9, -0.4, -1.2,0,0,1024,1024,1684,1024,233.9,0,98,4.013,3.993,3.974,0,0,0,0,32,1149.4128576474,42.979004,6,P-GPS,
10300,2019-08-16 21:55:34,37.9445352191421,-91.7606948519516,43.307088,,,1149.7409416474,0,1.77892394144,15,4,11.98,1149.7409416474,43.307088,0.223694,1.87517066368,0,0,-4.250186,233.9, -0.3, -1,0,0,1024,1024,1684,1024,233.9,0,98,4.013,3.993,3.974,0,0,0,0,32,1149.7409416474,43.307088,6,P-GPS,
10400,2019-08-16 21:55:34,37.9445352464985,-91.760694906688,43.963256,,,1150.3971096474,0,1.78165688116,15,4,11.98,1150.3971096474,43.963256,0.223694,1.87517066368,0,0,-4.250186,234, -0.3, -0.5,0,0,1024,1024,1684,1024,233.9,0,98,4.013,3.993,3.974,0,0,0,0,32,1150.3971096474,43.963256,6,P-GPS,
10500,2019-08-16 21:55:34,37.9445350228436,-91.7606946382533,44.619424,,,1151.0532776474,0,1.79587604172,15,4,11.98,1151.0532776474,44.619424,0.223694,1.87517066368,0,0,-4.250186,234, -0.3, -0.5,0,0,1024,1024,1684,1024,233.9,0,98,4.013,3.993,3.974,0,0,0,0,32,1151.0532776474,44.619424,6,P-GPS,
10600,2019-08-16 21:55:34,37.9445350389535,-91.7606946656662,45.275592,,,1151.7094456474,0,1.79604336456,15,4,11.98,1151.7094456474,45.275592,0.223694,1.87517066368,0,0,-4.250186,234, -0.2, -0.2,0,0,1024,1024,1684,1024,233.9,0,98,4.013,3.993,3.974,0,0,0,0,32,1151.7094456474,45.275592,6,P-GPS,
10700,2019-08-16 21:55:34,37.9445350493445,-91.7606947635476,45.93176,,,1152.3656136474,0,1.81049218392,15,4,11.98,1152.3656136474,45.93176,0.223694,1.87517066368,0,0,-4.250186,234, -0.2, -0.2,0,0,1024,1024,1684,1024,233.9,0,98,4.013,3.993,3.974,0,0,0,0,32,1152.3656136474,45.93176,6,P-GPS,
10800,2019-08-16 21:55:34,37.9445350939446,-91.7606948085482,46.587928,,,1153.0217816474,0,1.8059711864,15,4,11.98,1153.0217816474,46.587928,0.223694,1.87517066368,0,0,-4.250186,233.9, -0.5, -1.6,0,0,1024,1024,1684,1024,233.9,0,98,4.013,3.993,3.974,0,0,0,0,32,1153.0217816474,46.587928,6,P-GPS,
10900,2019-08-16 21:55:34,37.944534673417,-91.7606946090342,47.244096,,,1153.6779496474,0,1.89374349892,15,4,11.952,1153.6779496474,47.244096,0.223694,1.89374349892,0,0,-4.250186,233.8, -0.7, -2.4,0,0,1024,1024,1684,1024,233.9,0,98,4.003,3.982,3.967,0,0,0,0,32,1153.6779496474,47.244096,6,P-GPS,
11000,2019-08-16 21:55:35,37.944534658247,-91.7606946147155,47.900264,,,1154.3341176474,0,1.89921922088,15,4,11.952,1154.3341176474,47.900264,0.223694,1.89921922088,0,0,-4.250186,233.9, -0.8, -2,0,0,1024,1024,1684,1024,233.9,0,98,4.003,3.982,3.967,0,0,0,0,32,1154.3341176474,47.900264,6,P-GPS,
11100,2019-08-16 21:55:35,37.9445347947656,-91.7606949927578,48.228348,,,1154.6622016474,0,1.92423562588,15,4,11.952,1154.6622016474,48.228348,0.223694,1.92423562588,0,0,-4.250186,233.9, -0.6, -1.7,0,0,1024,1024,1684,1024,233.9,0,98,4.003,3.982,3.967,0,0,0,0,32,1154.6622016474,48.228348,6,P-GPS,
11200,2019-08-16 21:55:35,37.9445347744586,-91.7606950183664,48.884516,,,1155.3183696474,0,1.93461948448,15,4,11.952,1155.3183696474,48.884516,0.223694,1.93461948448,0,0,-4.250186,234, -0.9, -2.2,0,0,1024,1024,1684,1024,233.9,0,98,4.003,3.982,3.967,0,0,0,0,32,1155.3183696474,48.884516,6,P-GPS,
11300,2019-08-16 21:55:35,37.9445345572248,-91.7606953367174,49.540684,,,1155.9745376474,0,2.0537730316,15,4,11.952,1155.9745376474,49.540684,0.223694,2.0537730316,0,0,-4.250186,233.9, -0.6, -1.7,0,0,1024,1024,1684,1024,233.9,0,98,4.003,3.982,3.967,0,0,0,0,32,1155.9745376474,49.540684,6,P-GPS,
11400,2019-08-16 21:55:35,37.9445345058909,-91.7606953847141,50.196852,,,1156.6307056474,0,2.077017783,16,4,11.952,1156.6307056474,50.196852,0.223694,2.077017783,0,0,-4.250186,233.9, -0.4, -0.8,0,0,1024,1024,1684,1024,233.9,0,98,4.003,3.982,3.967,0,0,0,0,32,1156.6307056474,50.196852,6,P-GPS,
11500,2019-08-16 21:55:35,37.9445345598168,-91.7606955682631,50.85302,,,1157.2868736474,0,2.09569232428,16,4,11.952,1157.2868736474,50.85302,0.223694,2.09569232428,0,0,-4.250186,233.9, -0.7, -1.3,0,0,1024,1024,1684,1024,233.9,0,98,4.003,3.982,3.967,0,0,0,0,32,1157.2868736474,50.85302,6,P-GPS,
11600,2019-08-16 21:55:35,37.9445345357745,-91.7606956410781,51.509188,,,1157.9430416474,0,2.1159941622,15,4,11.952,1157.9430416474,51.509188,0.223694,2.1159941622,0,0,-4.250186,233.9, -0.9, -2.2,0,0,1024,1024,1684,1024,233.9,0,98,4.003,3.982,3.967,0,0,0,0,32,1157.9430416474,51.509188,6,P-GPS,
11700,2019-08-16 21:55:35,37.944534483424,-91.7606958262372,52.165356,,,1158.5992096474,0,2.16543970184,15,4,11.952,1158.5992096474,52.165356,0.223694,2.16543970184,0,0,-4.250186,233.9, -1.1, -2.1,0,0,1024,1024,1684,1024,233.9,0,98,4.003,3.982,3.967,0,0,0,0,32,1158.5992096474,52.165356,6,P-GPS,
11800,2019-08-16 21:55:35,37.9445344393074,-91.7606959113364,52.821524,,,1159.2553776474,0,2.19373694684,15,5,11.952,1159.2553776474,52.821524,0.223694,2.19373694684,0,0,-4.250186,233.9, -1.1, -1.8,0,0,1024,1024,1684,1024,233.9,0,98,4.003,3.982,3.967,0,0,0,0,32,1159.2553776474,52.821524,6,P-GPS,
11900,2019-08-16 21:55:35,37.9445346214258,-91.7606962264038,53.477692,,,1159.9115456474,0,2.20731962444,15,5,11.939,1159.9115456474,53.477692,0.223694,2.20731962444,0,0,-4.250186,233.9, -0.8, -1.3,0,0,1024,1024,1684,1024,233.9,0,98,3.998,3.978,3.963,0,0,0,0,32,1159.9115456474,53.477692,6,P-GPS,
12000,2019-08-16 21:55:36,37.9445345994446,-91.7606963358142,53.805776,,,1160.2396296474,0,2.23520676444,16,5,11.939,1160.2396296474,53.805776,0.223694,2.23520676444,0,0,-4.250186,233.9, -0.9, -0.8,0,0,1024,1024,1684,1024,233.9,0,98,3.998,3.978,3.963,0,0,0,0,32,1160.2396296474,53.805776,6,P-GPS,
12100,2019-08-16 21:55:36,37.9445347855807,-91.7606964509846,54.461944,,,1160.8957976474,0,2.21185046448,16,5,11.939,1160.8957976474,54.461944,0.223694,2.23520676444,0,0,-4.250186,233.9, -1, -1.9,0,0,1024,1024,1684,1024,233.9,0,98,3.998,3.978,3.963,0,0,0,0,32,1160.8957976474,54.461944,6,P-GPS,
12200,2019-08-16 21:55:36,37.9445348085987,-91.760696578868,55.118112,,,1161.5519656474,0,2.23320545204,16,5,11.939,1161.5519656474,55.118112,0.223694,2.23520676444,0,0,-4.250186,234, -1.3, -2.5,0,0,1024,1024,1684,1024,233.9,0,98,3.998,3.978,3.963,0,0,0,0,32,1161.5519656474,55.118112,6,P-GPS,
12300,2019-08-16 21:55:36,37.9445348684331,-91.7606965346455,55.77428,,,1162.2081336474,0,2.20911752476,16,5,11.939,1162.2081336474,55.77428,0.223694,2.23520676444,0,0,-4.250186,234, -1.5, -2.4,0,0,1024,1024,1684,1024,233.9,0,98,3.998,3.978,3.963,0,0,0,0,32,1162.2081336474,55.77428,6,P-GPS,
12400,2019-08-16 21:55:36,37.9445348972657,-91.7606966556528,56.430448,,,1162.8643016474,0,2.22812015004,16,5,11.939,1162.8643016474,56.430448,0.223694,2.23520676444,0,0,-4.250186,233.9, -1.7, -2.9,0,0,1024,1024,1684,1024,233.9,0,98,3.998,3.978,3.963,0,0,0,0,32,1162.8643016474,56.430448,6,P-GPS,
12500,2019-08-16 21:55:36,37.9445345695979,-91.7606967506009,57.086616,,,1163.5204696474,0,2.32863852596,16,5,11.939,1163.5204696474,57.086616,0.223694,2.32863852596,0,0,-4.47388,233.8, -1.7, -3.4,0,0,1024,1024,1684,1024,233.9,0,98,3.998,3.978,3.963,0,0,0,0,32,1163.5204696474,57.086616,6,P-GPS,
12600,2019-08-16 21:55:36,37.9445345393446,-91.7606968756457,57.742784,,,1164.1766376474,0,2.36251976064,16,5,11.939,1164.1766376474,57.742784,0.223694,2.36251976064,0,0,-4.47388,233.8, -1.4, -2.9,0,0,1024,1024,1684,1024,233.9,0,98,3.998,3.978,3.963,0,0,0,0,32,1164.1766376474,57.742784,6,P-GPS,
12700,2019-08-16 21:55:36,37.9445343490285,-91.76069695678,58.398952,,,1164.8328056474,0,2.42699154748,16,5,11.939,1164.8328056474,58.398952,0.223694,2.42699154748,0,0,-4.47388,233.9, -1.3, -1.8,0,0,1024,1024,1684,1024,233.9,0,98,3.998,3.978,3.963,0,0,0,0,32,1164.8328056474,58.398952,6,P-GPS,
12800,2019-08-16 21:55:36,37.9445342880443,-91.7606970913221,59.05512,,,1165.4889736474,0,2.47041346488,16,5,11.939,1165.4889736474,59.05512,0.223694,2.47041346488,0,0,-4.47388,234.1, -1.1, -1.1,0,0,1024,1024,1684,1024,233.9,0,98,3.998,3.978,3.963,0,0,0,0,32,1165.4889736474,59.05512,6,P-GPS,
12900,2019-08-16 21:55:37,37.9445343171762,-91.76069733855,59.711288,,,1166.1451416474,0,2.51558407,16,5,11.9,1166.1451416474,59.711288,0.223694,2.51558407,0,0,-4.250186,234, -1.2, -2.6,0,0,1024,1024,1684,1024,233.9,0,98,3.987,3.964,3.949,0,0,0,0,32,1166.1451416474,59.711288,6,P-GPS,
13000,2019-08-16 21:55:37,37.9445342607435,-91.7606975079623,60.039372,,,1166.4732256474,0,2.56565625008,16,5,11.9,1166.4732256474,60.039372,0.223694,2.56565625008,0,0,-4.250186,234, -0.9, -2.9,0,0,1024,1024,1684,1024,233.9,0,97,3.987,3.964,3.949,0,0,0,0,32,1166.4732256474,60.039372,6,P-GPS,
13100,2019-08-16 21:55:37,37.9445341987008,-91.7606974340515,60.69554,,,1167.1293936474,0,2.56495415032,16,5,11.9,1167.1293936474,60.69554,0.223694,2.56565625008,0,0,-4.250186,234, -0.5, -1.6,0,0,1024,1024,1684,1024,233.9,0,97,3.987,3.964,3.949,0,0,0,0,32,1167.1293936474,60.69554,6,P-GPS,
13200,2019-08-16 21:55:37,37.9445341216811,-91.7606975821277,61.351708,,,1167.7855616474,0,2.61539378448,16,5,11.9,1167.7855616474,61.351708,0.223694,2.61539378448,0,0,-4.47388,233.9, -0.3, -1.6,0,0,1024,1024,1684,1024,233.9,0,97,3.987,3.964,3.949,0,0,0,0,32,1167.7855616474,61.351708,6,P-GPS,
13300,2019-08-16 21:55:37,37.9445340359527,-91.7606975990959,62.007876,,,1168.4417296474,0,2.6400591396,16,5,11.9,1168.4417296474,62.007876,0.223694,2.6400591396,0,0,-4.47388,233.9, -0.4, -2.6,0,0,1024,1024,1684,1024,233.9,0,97,3.987,3.964,3.949,0,0,0,0,32,1168.4417296474,62.007876,6,P-GPS,
13400,2019-08-16 21:55:37,37.9445339564326,-91.7606977284064,62.664044,,,1169.0978976474,0,2.68709326184,16,5,11.9,1169.0978976474,62.664044,0.223694,2.68709326184,0,0,-4.47388,233.9, -0.3, -2.5,0,0,1024,1024,1684,1024,233.9,0,97,3.987,3.964,3.949,0,0,0,0,32,1169.0978976474,62.664044,6,P-GPS,
13500,2019-08-16 21:55:37,37.9445338077535,-91.7606977461435,63.320212,,,1169.7540656474,0,2.72771006104,16,5,11.9,1169.7540656474,63.320212,0.223694,2.72771006104,0,0,-4.250186,233.8, -0.4, -1.7,0,0,1024,1024,1684,1024,233.9,0,97,3.987,3.964,3.949,0,0,0,0,32,1169.7540656474,63.320212,6,P-GPS,
13600,2019-08-16 21:55:37,37.9445337182951,-91.7606978588616,63.97638,,,1170.4102336474,0,2.77369759532,16,5,11.9,1170.4102336474,63.97638,0.223694,2.77369759532,0,0,-4.250186,233.9, -0.4, -0.9,0,0,1024,1024,1684,1024,233.9,0,97,3.987,3.964,3.949,0,0,0,0,32,1170.4102336474,63.97638,6,P-GPS,
13700,2019-08-16 21:55:37,37.944533737655,-91.7606978981819,64.632548,,,1171.0664016474,0,2.77712935396,16,5,11.9,1171.0664016474,64.632548,0.223694,2.77712935396,0,0,-4.250186,234, -0.4, -1.5,0,0,1024,1024,1684,1024,233.9,0,97,3.987,3.964,3.949,0,0,0,0,32,1171.0664016474,64.632548,6,P-GPS,
13800,2019-08-16 21:55:37,37.9445337013165,-91.7606980410059,65.288716,,,1171.7225696474,0,2.8162894602,16,5,11.9,1171.7225696474,65.288716,0.223694,2.8162894602,0,0,-4.250186,234, -0.2, -2.2,0,0,1024,1024,1684,1024,233.9,0,97,3.987,3.964,3.949,0,0,0,0,32,1171.7225696474,65.288716,6,P-GPS,
13900,2019-08-16 21:55:37,37.9445336434821,-91.7606980548292,65.944884,,,1172.3787376474,0,2.8335302744,16,5,11.913,1172.3787376474,65.944884,0.223694,2.8335302744,0,0,-4.250186,233.9, -0.3, -3,0,0,1024,1024,1684,1024,233.9,0,97,3.99,3.97,3.953,0,0,0,0,32,1172.3787376474,65.944884,6,P-GPS,
14000,2019-08-16 21:55:37,37.9445336499231,-91.76069820006,66.601052,,,1173.0349056474,0,2.86271990788,16,5,11.913,1173.0349056474,66.601052,0.223694,2.86271990788,0,0,-4.250186,233.9, -0.7, -3.7,0,0,1024,1024,1684,1024,233.9,0,97,3.99,3.97,3.953,0,0,0,0,32,1173.0349056474,66.601052,6,P-GPS,
14100,2019-08-16 21:55:38,37.9445337009184,-91.7606984435787,66.929136,,,1173.3629896474,0,2.90270022412,16,5,11.913,1173.3629896474,66.929136,0.223694,2.90270022412,0,0,-4.250186,234, -1.3, -3.4,0,0,1024,1024,1684,1028,233.9,0,97,3.99,3.97,3.953,0,0,0,0,32,1173.3629896474,66.929136,6,P-GPS,
14200,2019-08-16 21:55:38,37.944533730949,-91.7606986350633,67.913388,,,1174.3472416474,0.223694,2.93738198376,16,5,11.913,1174.3472416474,67.913388,0.223694,2.93738198376,0,-0.223694,-4.250186,234.1, -1, -4,0,0,1024,1024,1684,1024,233.9,-0.2,97,3.99,3.97,3.953,0,0,0,0,32,1174.3472416474,67.913388,6,P-GPS,
14300,2019-08-16 21:55:38,37.9445337839821,-91.7606988545607,68.569556,,,1175.0034096474,0.223694,2.9736549508,16,5,11.913,1175.0034096474,68.569556,0.223694,2.9736549508,0,-0.223694,-4.250186,233.9, 0, -5.4,0,0,1024,1024,1684,1024,233.9,-0.9,97,3.99,3.97,3.953,0,0,0,0,32,1175.0034096474,68.569556,6,P-GPS,
14400,2019-08-16 21:55:38,37.9445338343167,-91.7606990647217,69.225724,,,1175.6595776474,0.223694,3.009432511,16,5,11.913,1175.6595776474,69.225724,0.223694,3.009432511,0.223694,0,-4.250186,233.9, 0.5, -6.7,0,0,1024,1024,1684,1024,233.9,-2.2,97,3.99,3.97,3.953,0,0,0,0,32,1175.6595776474,69.225724,6,P-GPS,
14500,2019-08-16 21:55:38,37.9445338083389,-91.760699465088,69.881892,,,1176.3157456474,0,3.10655849836,16,5,11.913,1176.3157456474,69.881892,0.223694,3.10655849836,0,0,-4.250186,233.8, 0, -7.1,0,0,1024,1024,1684,1024,233.9,-4.1,97,3.99,3.97,3.953,0,0,0,0,32,1176.3157456474,69.881892,6,P-GPS,
14600,2019-08-16 21:55:38,37.9445338342656,-91.7606996126804,70.53806,,,1176.9719136474,0,3.13498369612,16,5,11.913,1176.9719136474,70.53806,0.223694,3.13498369612,0,0,-4.250186,233.9, 0, -6.4,0,0,1024,1024,1684,1024,233.9,-6.4,97,3.99,3.97,3.953,0,0,0,0,32,1176.9719136474,70.53806,6,P-GPS,
14700,2019-08-16 21:55:38,37.9445340328267,-91.7606994744759,71.194228,,,1177.6280816474,0,3.06021663336,16,5,11.913,1177.6280816474,71.194228,0.223694,3.13498369612,0,0,-4.250186,234, -0.6, -5.2,0,0,1024,1024,1684,1024,233.9,-8.7,97,3.99,3.97,3.953,0,0,0,0,32,1177.6280816474,71.194228,6,P-GPS,
14800,2019-08-16 21:55:38,37.9445340773299,-91.7606995357226,71.850396,,,1178.2842496474,0,3.06514445504,16,5,11.913,1178.2842496474,71.850396,0.223694,3.13498369612,0,0,-4.250186,234, -1.1, -4.4,0,0,1024,1024,1684,1024,233.9,-11.1,97,3.99,3.97,3.953,0,0,0,0,32,1178.2842496474,71.850396,6,P-GPS,
14900,2019-08-16 21:55:38,37.9445341317888,-91.7606997095255,72.506564,,,1178.9404176474,0.223694,3.09483933788,16,5,11.913,1178.9404176474,72.506564,0.223694,3.13498369612,0.223694,0,-4.250186,234.1, -1.7, -4.9,0,0,1024,1024,1684,1024,233.9,-13.4,97,3.99,3.97,3.953,0,0,0,0,32,1178.9404176474,72.506564,6,P-GPS,
15000,2019-08-16 21:55:39,37.944534203202,-91.7606998011435,73.162732,,,1179.5965856474,0.223694,3.1020670284,16,5,11.904,1179.5965856474,73.162732,0.223694,3.13498369612,0.223694,0,-4.47388,234.1, -1.3, -6.1,0,0,1024,1024,1684,1024,233.9,-15.3,97,3.989,3.966,3.949,0,0,0,0,32,1179.5965856474,73.162732,6,P-GPS,
15100,2019-08-16 21:55:39,37.9445343140087,-91.7606999463532,73.8189,,,1180.2527536474,0.223694,3.11486558524,16,5,11.904,1180.2527536474,73.8189,0.223694,3.13498369612,0.223694,0,-4.250186,234, -1.1, -6.6,0,0,1024,1024,1684,1024,233.9,-16.6,97,3.989,3.966,3.949,0,0,0,0,32,1180.2527536474,73.8189,6,P-GPS,
15200,2019-08-16 21:55:39,37.9445343766299,-91.7607000403553,74.475068,,,1180.9089216474,0,3.12546269844,16,5,11.904,1180.9089216474,74.475068,0.223694,3.13498369612,0,0,-4.47388,234, -1, -6.7,0,0,1024,1024,1684,1024,233.9,-17.4,97,3.989,3.966,3.949,0,0,0,0,32,1180.9089216474,74.475068,6,P-GPS,
15300,2019-08-16 21:55:39,37.9445345258823,-91.7607003165301,75.131236,,,1181.5650896474,0,3.16509852648,16,5,11.904,1181.5650896474,75.131236,0.223694,3.16509852648,0,0,-4.250186,233.9, -1, -6.8,0,0,1024,1024,1684,1024,233.9,-17.7,97,3.989,3.966,3.949,0,0,0,0,32,1181.5650896474,75.131236,6,P-GPS,
15400,2019-08-16 21:55:39,37.9445345811761,-91.7607004154011,75.787404,,,1182.2212576474,0,3.17954078416,16,5,11.904,1182.2212576474,75.787404,0.223694,3.17954078416,0,0,-4.47388,233.9, -1, -7,0,0,1024,1024,1684,1024,233.9,-17.7,97,3.989,3.966,3.949,0,0,0,0,32,1182.2212576474,75.787404,6,P-GPS,
15500,2019-08-16 21:55:39,37.9445343899769,-91.7607005966428,76.443572,,,1182.8774256474,0,3.25970810956,16,5,11.904,1182.8774256474,76.443572,0.223694,3.25970810956,0,0,-4.250186,233.8, -0.9, -7,0,0,1024,1024,1684,1024,233.9,-17.7,97,3.989,3.966,3.949,0,0,0,0,32,1182.8774256474,76.443572,6,P-GPS,
15600,2019-08-16 21:55:39,37.9445344020415,-91.7607006713523,77.09974,,,1183.5335936474,0,3.27602372688,16,5,11.904,1183.5335936474,77.09974,0.223694,3.27602372688,0,0,-4.250186,233.7, -0.5, -6.9,0,0,1024,1024,1684,1024,233.9,-17.7,97,3.989,3.966,3.949,0,0,0,0,32,1183.5335936474,77.09974,6,P-GPS,
15700,2019-08-16 21:55:39,37.9445344278349,-91.760700539988,77.755908,,,1184.1897616474,0,3.23865495928,16,5,11.904,1184.1897616474,77.755908,0.223694,3.27602372688,0,0,-4.250186,233.9, -1, -6.5,0,0,1024,1024,1684,1024,233.9,-17.7,97,3.989,3.966,3.949,0,0,0,0,32,1184.1897616474,77.755908,6,P-GPS,
15800,2019-08-16 21:55:39,37.9445344199609,-91.7607005576124,78.412076,,,1184.8459296474,0,3.24448173112,16,5,11.904,1184.8459296474,78.412076,0.223694,3.27602372688,0,0,-4.250186,234, -1.1, -6,0,0,1024,1024,1684,1024,233.9,-17.7,97,3.989,3.966,3.949,0,0,0,0,32,1184.8459296474,78.412076,6,P-GPS,
15900,2019-08-16 21:55:39,37.9445343407786,-91.760700497712,79.068244,,,1185.5020976474,0,3.2444390802,16,5,11.904,1185.5020976474,79.068244,0.223694,3.27602372688,0,0,-4.47388,234, -1.2, -5.1,0,0,1024,1024,1684,1024,233.9,-17.9,97,3.989,3.966,3.949,0,0,0,0,32,1185.5020976474,79.068244,6,P-GPS,
16000,2019-08-16 21:55:40,37.9445343253969,-91.7607005070191,79.724412,,,1186.1582656474,0,3.24962936908,16,5,11.838,1186.1582656474,79.724412,0.223694,3.27602372688,0,0,-4.47388,234.1, -1.6, -5.2,0,0,1024,1024,1684,1024,233.9,-18.5,97,3.966,3.944,3.928,0,0,0,0,32,1186.1582656474,79.724412,6,P-GPS,
16100,2019-08-16 21:55:40,37.9445341797976,-91.760700614832,80.38058,,,1186.8144336474,0,3.3037730716,16,5,11.838,1186.8144336474,80.38058,0.223694,3.3037730716,0,0,-4.47388,234, -1.6, -6,0,0,1024,1024,1684,1024,233.9,-19.4,97,3.966,3.944,3.928,0,0,0,0,32,1186.8144336474,80.38058,6,P-GPS,
16200,2019-08-16 21:55:40,37.9445341414372,-91.7607006603686,81.036748,,,1187.4706016474,0,3.3222770092,16,5,11.838,1187.4706016474,81.036748,0.223694,3.3222770092,0,0,-4.47388,233.9, -1.1, -6.6,0,0,1024,1024,1684,1024,233.9,-20.6,97,3.966,3.944,3.928,0,0,0,0,32,1187.4706016474,81.036748,6,P-GPS,
16300,2019-08-16 21:55:40,37.9445341749051,-91.760700819698,81.692916,,,1188.1267696474,0,3.3550197924,16,5,11.838,1188.1267696474,81.692916,0.223694,3.3550197924,0,0,-4.250186,233.8, -0.5, -6.2,0,0,1024,1024,1684,1024,233.9,-22.1,97,3.966,3.944,3.928,0,0,0,0,32,1188.1267696474,81.692916,6,P-GPS,
16400,2019-08-16 21:55:40,37.9445341129229,-91.7607008678312,82.349084,,,1188.7829376474,0,3.3785762236,16,5,11.838,1188.7829376474,82.349084,0.223694,3.3785762236,0,0,-4.250186,233.8, -0.3, -5.7,0,0,1024,1024,1684,1024,233.9,-23.6,97,3.966,3.944,3.928,0,0,0,0,32,1188.7829376474,82.349084,6,P-GPS,
16500,2019-08-16 21:55:40,37.944534105727,-91.7607009188427,83.005252,,,1189.4391056474,0,3.3924869852,16,5,11.838,1189.4391056474,83.005252,0.223694,3.3924869852,0,0,-4.250186,233.9, -0.6, -5.9,0,0,1024,1024,1684,1024,233.9,-25.1,97,3.966,3.944,3.928,0,0,0,0,32,1189.4391056474,83.005252,6,P-GPS,
16600,2019-08-16 21:55:40,37.9445340444622,-91.760700959385,83.333336,,,1189.7671896474,0,3.4140749124,16,5,11.838,1189.7671896474,83.333336,0.223694,3.4140749124,0,0,-4.250186,233.9, -0.6, -5.9,0,0,1024,1024,1684,1024,233.9,-26.6,97,3.966,3.944,3.928,0,0,0,0,32,1189.7671896474,83.333336,6,P-GPS,
16700,2019-08-16 21:55:40,37.9445339743332,-91.7607009815599,83.989504,,,1190.4233576474,0,3.4329397424,16,5,11.838,1190.4233576474,83.989504,0.223694,3.4329397424,0,0,-4.250186,233.9, -0.6, -5.9,0,0,1024,1024,1684,1024,233.9,-28.1,97,3.966,3.944,3.928,0,0,0,0,32,1190.4233576474,83.989504,6,P-GPS,
16800,2019-08-16 21:55:40,37.9445338999659,-91.7607010194534,84.645672,,,1191.0795256474,0,3.456528982,16,5,11.838,1191.0795256474,84.645672,0.223694,3.456528982,0,0,-4.250186,233.9, -0.4, -5.7,0,0,1024,1024,1684,1024,233.9,-29.2,97,3.966,3.944,3.928,0,0,0,0,32,1191.0795256474,84.645672,6,P-GPS,
16900,2019-08-16 21:55:40,37.9445337048422,-91.7607007892415,85.30184,,,1191.7356936474,0,3.439468614,16,5,11.838,1191.7356936474,85.30184,0.223694,3.456528982,0,0,-4.250186,233.9, -0.4, -5.4,0,0,1024,1024,1675,1024,233.9,-29.9,97,3.966,3.944,3.928,0,0,0,0,32,1191.7356936474,85.30184,6,P-GPS,
17000,2019-08-16 21:55:41,37.944533628406,-91.7607008066605,85.958008,,,1192.3918616474,0,3.459153654,16,5,11.819,1192.3918616474,85.958008,0.223694,3.459153654,0,0,-4.250186,234, -0.6, -5.3,0,0,1024,1024,1630,1024,233.9,-29.9,97,3.961,3.936,3.922,0,0,0,0,32,1192.3918616474,85.958008,6,P-GPS,
17100,2019-08-16 21:55:41,37.9445334969395,-91.7607009444058,86.614176,,,1193.0480296474,0,3.518864942,16,5,11.819,1193.0480296474,86.614176,0.223694,3.518864942,0,0,-4.250186,233.9, -0.4, -5.5,0,0,1024,1024,1591,1024,233.9,-30,97,3.961,3.936,3.922,0,0,0,0,32,1193.0480296474,86.614176,6,P-GPS,
17200,2019-08-16 21:55:41,37.944533429234,-91.760700992914,87.270344,,,1193.7041976474,0,3.5443242604,16,5,11.819,1193.7041976474,87.270344,0.223694,3.5443242604,0,0,-4.250186,233.8, -0.2, -6.1,0,0,1024,1024,1591,1024,233.9,-29.9,97,3.961,3.936,3.922,0,0,0,0,32,1193.7041976474,87.270344,6,P-GPS,
17300,2019-08-16 21:55:41,37.9445334825094,-91.7607011191429,87.926512,,,1194.3603656474,0,3.563484366,16,5,11.819,1194.3603656474,87.926512,0.223694,3.563484366,0,0,-4.026492,233.8, -0.4, -6.2,0,0,1024,1024,1192,1024,233.9,-29.9,97,3.961,3.936,3.922,0,0,0,0,32,1194.3603656474,87.926512,6,P-GPS,
17400,2019-08-16 21:55:41,37.9445334234195,-91.7607011820842,88.58268,,,1195.0165336474,0,3.5905184876,16,5,11.819,1195.0165336474,88.58268,0.223694,3.5905184876,0,0,-4.026492,233.9, -0.3, -6.1,0,0,1024,1024,1151,1024,233.9,-30,97,3.961,3.936,3.922,0,0,0,0,32,1195.0165336474,88.58268,6,P-GPS,
17500,2019-08-16 21:55:41,37.9445335581022,-91.7607012586608,89.238848,,,1195.6727016474,0,3.5817258364,16,5,11.819,1195.6727016474,89.238848,0.223694,3.5905184876,0,0,-3.35541,233.8, 0, -6.6,0,0,1024,1024,1151,1024,233.9,-30,97,3.961,3.936,3.922,0,0,0,0,32,1195.6727016474,89.238848,6,P-GPS,
17600,2019-08-16 21:55:41,37.9445335422547,-91.7607013544889,89.566932,,,1196.0007856474,0,3.6079725564,16,5,11.819,1196.0007856474,89.566932,0.223694,3.6079725564,0,0,-2.460634,233.8, 0, -8.2,0,0,1024,1024,1148,1024,233.9,-30,97,3.961,3.936,3.922,0,0,0,0,32,1196.0007856474,89.566932,6,P-GPS,
17700,2019-08-16 21:55:41,37.9445336541539,-91.760701437258,89.895016,,,1196.3288696474,0,3.6060368608,16,5,11.819,1196.3288696474,89.895016,0.223694,3.6079725564,0,0,-1.565858,233.9, 0, -8.3,0,0,1024,1024,1148,1024,233.9,-29.9,97,3.961,3.936,3.922,0,0,0,0,32,1196.3288696474,89.895016,6,P-GPS,
17800,2019-08-16 21:55:42,37.9445336696366,-91.7607015337786,90.2231,,,1196.6569536474,0,3.6265421108,16,5,11.819,1196.6569536474,90.2231,0.223694,3.6265421108,0,0,-1.11847,233.9, -0.1, -6.9,0,0,1024,1024,1149,1024,233.9,-30,97,3.961,3.936,3.922,0,0,0,0,32,1196.6569536474,90.2231,6,P-GPS,
17900,2019-08-16 21:55:42,37.9445337509527,-91.7607016943498,90.2231,,,1196.6569536474,0,3.6503938176,16,5,11.819,1196.6569536474,90.2231,0.223694,3.6503938176,0,0,-0.447388,233.9, -0.3, -6,0,0,1024,1024,1228,1024,233.9,-29.9,97,3.961,3.936,3.922,0,0,0,0,32,1196.6569536474,90.2231,6,P-GPS,
18000,2019-08-16 21:55:42,37.9445338027924,-91.760701831593,90.2231,,,1196.6569536474,0,3.6746064168,16,5,11.843,1196.6569536474,90.2231,0.223694,3.6746064168,0,0,-0.223694,233.9, 0, -6.7,0,0,1024,1024,1395,1024,233.9,-29.9,97,3.965,3.945,3.933,0,0,0,0,32,1196.6569536474,90.2231,6,P-GPS,
18100,2019-08-16 21:55:42,37.9445336764475,-91.7607019759071,90.2231,,,1196.6569536474,0,3.7338583872,16,5,11.843,1196.6569536474,90.2231,0.223694,3.7338583872,0,0,-0.223694,233.9, 0, -8.4,0,0,1024,1024,1466,1024,233.9,-30,97,3.965,3.945,3.933,0,0,0,0,32,1196.6569536474,90.2231,6,P-GPS,
18200,2019-08-16 21:55:42,37.9445337070151,-91.7607021208225,90.2231,,,1196.6569536474,0,3.7640421152,16,5,11.843,1196.6569536474,90.2231,0.223694,3.7640421152,0,0,-0.447388,233.9, 0.4, -8.1,0,0,1024,1024,1513,1024,233.9,-30,97,3.965,3.945,3.933,0,0,0,0,32,1196.6569536474,90.2231,6,P-GPS,
18300,2019-08-16 21:55:42,37.9445336537775,-91.7607023348169,90.551184,,,1196.9850376474,0,3.8270014348,16,5,11.843,1196.9850376474,90.551184,0.223694,3.8270014348,0,0,-0.894776,234, 0.3, -7.2,0,0,1024,1024,1519,1024,233.9,-30,97,3.965,3.945,3.933,0,0,0,0,32,1196.9850376474,90.551184,6,P-GPS,
18400,2019-08-16 21:55:42,37.9445336386744,-91.7607024467524,90.551184,,,1196.9850376474,0,3.8576444804,16,5,11.843,1196.9850376474,90.551184,0.223694,3.8576444804,0,0,-1.565858,233.9, 0.9, -7.2,0,1,1024,1024,1520,1024,233.9,-29.9,97,3.965,3.945,3.933,0,0,0,0,32,1196.9850376474,90.551184,6,P-GPS,
18500,2019-08-16 21:55:42,37.9445336479102,-91.7607025034289,91.207352,,,1197.6412056474,0,3.870078864,16,5,11.843,1197.6412056474,91.207352,0.223694,3.870078864,0,0,-2.013246,233.8, 1, -7.5,0,1,1024,1024,1520,1024,233.9,-30,97,3.965,3.945,3.933,0,0,0,0,32,1197.6412056474,91.207352,6,P-GPS,
18600,2019-08-16 21:55:42,37.9445336167887,-91.7607025643271,91.207352,,,1197.6412056474,0,3.8909450064,16,5,11.843,1197.6412056474,91.207352,0.223694,3.8909450064,0,0,-2.460634,233.7, 1.7, -7.3,0,1,1024,1024,1520,1024,233.9,-30,97,3.965,3.945,3.933,0,0,0,0,32,1197.6412056474,91.207352,6,P-GPS,
18700,2019-08-16 21:55:42,37.9445334536476,-91.7607023870758,91.86352,,,1198.2973736474,0,3.8770998616,16,5,11.843,1198.2973736474,91.86352,0.223694,3.8909450064,0,0,-2.684328,233.7, 1.4, -6.6,0,1,1024,1024,1520,1024,233.9,-30,97,3.965,3.945,3.933,0,0,0,0,32,1198.2973736474,91.86352,6,P-GPS,
18800,2019-08-16 21:55:42,37.9445334162771,-91.7607023861205,92.191604,,,1198.6254576474,0,3.8839240088,16,5,11.843,1198.6254576474,92.191604,0.223694,3.8909450064,0,0,-2.908022,233.8, 1, -6.3,0,1,1024,1024,1520,1024,233.9,-29.9,97,3.965,3.945,3.933,0,0,0,0,32,1198.6254576474,92.191604,6,P-GPS,
18900,2019-08-16 21:55:42,37.9445333398485,-91.7607023270858,92.519688,,,1198.9535416474,0,3.8839568172,16,5,11.843,1198.9535416474,92.519688,0.223694,3.8909450064,0,0,-2.908022,233.8, 0.7, -6.3,0,1,1024,1024,1519,1024,233.9,-29.9,97,3.965,3.945,3.933,0,0,0,0,32,1198.9535416474,92.519688,6,P-GPS,
19000,2019-08-16 21:55:43,37.9445333132352,-91.7607023075707,93.175856,,,1199.6097096474,0,3.8842849012,16,5,11.726,1199.6097096474,93.175856,0.223694,3.8909450064,0,0,-2.908022,233.8, 0.4, -6.1,0,1,1024,1024,1520,1024,233.9,-30,97,3.93,3.904,3.892,0,0,0,0,32,1199.6097096474,93.175856,6,P-GPS,
19100,2019-08-16 21:55:43,37.9445334343499,-91.7607021257539,93.50394,,,1199.9377936474,0,3.8165355552,16,5,11.726,1199.9377936474,93.50394,0.223694,3.8909450064,0,0,-2.908022,233.8, 0.4, -5.8,0,1,1024,1024,1520,1024,233.9,-29.9,97,3.93,3.904,3.892,0,0,0,0,32,1199.9377936474,93.50394,6,P-GPS,
19200,2019-08-16 21:55:43,37.944533437712,-91.76070209631,93.832024,,,1200.2658776474,0,3.8086943476,16,5,11.726,1200.2658776474,93.832024,0.223694,3.8909450064,0,0,-2.908022,233.9, 0.1, -5.8,0,1,1024,1024,1545,1024,233.9,-30,97,3.93,3.904,3.892,0,0,0,0,32,1200.2658776474,93.832024,6,P-GPS,
19300,2019-08-16 21:55:43,37.9445333577882,-91.760702322339,94.488192,,,1200.9220456474,0,3.8793636412,16,5,11.726,1200.9220456474,94.488192,0.223694,3.8909450064,0,0,-2.908022,233.9, 0, -6.4,0,1,1024,1024,1560,1024,233.9,-29.9,97,3.93,3.904,3.892,0,0,0,0,32,1200.9220456474,94.488192,6,P-GPS,
19400,2019-08-16 21:55:43,37.944533362348,-91.760702342407,94.816276,,,1201.2501296474,0,3.8833990744,16,5,11.726,1201.2501296474,94.816276,0.223694,3.8909450064,0,0,-2.908022,233.8, 0.2, -6.4,0,1,1024,1024,1570,1024,233.9,-29.9,97,3.93,3.904,3.892,0,0,0,0,32,1201.2501296474,94.816276,6,P-GPS,
19500,2019-08-16 21:55:43,37.9445334037346,-91.7607024144867,95.14436,,,1201.5782136474,0,3.8932744028,16,5,11.726,1201.5782136474,95.14436,0.223694,3.8932744028,0,0,-2.908022,233.8, 0.2, -6.6,0,1,1024,1024,1572,1024,233.9,-30,97,3.93,3.904,3.892,0,0,0,0,32,1201.5782136474,95.14436,6,P-GPS,
19600,2019-08-16 21:55:43,37.9445334102688,-91.7607024619668,95.800528,,,1202.2343816474,0,3.9037402824,16,5,11.726,1202.2343816474,95.800528,0.223694,3.9037402824,0,0,-3.131716,233.7, 0.6, -6.9,0,1,1024,1024,1573,1024,233.9,-30.1,97,3.93,3.904,3.892,0,0,0,0,32,1202.2343816474,95.800528,6,P-GPS,
19700,2019-08-16 21:55:43,37.9445335380881,-91.7607024672979,96.128612,,,1202.5624656474,0,3.8812009116,16,5,11.726,1202.5624656474,96.128612,0.223694,3.9037402824,0,0,-3.131716,233.7, 0.6, -7.6,0,1,1024,1024,1573,1024,233.9,-30.3,97,3.93,3.904,3.892,0,0,0,0,32,1202.5624656474,96.128612,6,P-GPS,
19800,2019-08-16 21:55:43,37.9445335400426,-91.7607024917481,96.78478,,,1203.2186336474,0,3.8869095732,16,5,11.726,1203.2186336474,96.78478,0.223694,3.9037402824,0,0,-3.35541,233.8, 0.3, -7.6,0,1,1024,1024,1574,1024,233.9,-30.4,97,3.93,3.904,3.892,0,0,0,0,32,1203.2186336474,96.78478,6,P-GPS,
19900,2019-08-16 21:55:44,37.9445334695032,-91.7607025422829,97.112864,,,1203.5467176474,0,3.9125001252,16,5,11.726,1203.5467176474,97.112864,0.223694,3.9125001252,0,0,-3.35541,233.8, 0.5, -7.2,0,1,1024,1024,1572,1024,233.9,-30.6,97,3.93,3.904,3.892,0,0,0,0,32,1203.5467176474,97.112864,6,P-GPS,
20000,2019-08-16 21:55:44,37.944533432379,-91.7607025541316,97.769032,,,1204.2028856474,0,3.9223426452,16,5,11.758,1204.2028856474,97.769032,0.223694,3.9223426452,0,0,-3.35541,233.8, 0.8, -6.3,0,1,1024,1024,1572,1024,233.9,-30.8,97,3.941,3.916,3.901,0,0,0,0,32,1204.2028856474,97.769032,6,P-GPS,
20100,2019-08-16 21:55:44,37.9445332241471,-91.7607024526357,98.097116,,,1204.5309696474,0,3.9368767664,16,5,11.758,1204.5309696474,98.097116,0.223694,3.9368767664,0,0,-3.35541,233.8, 0.8, -5.9,0,1,1024,1024,1569,1024,233.9,-31,97,3.941,3.916,3.901,0,0,0,0,32,1204.5309696474,98.097116,6,P-GPS,
20200,2019-08-16 21:55:44,37.944533178017,-91.7607024662956,98.753284,,,1205.1871376474,0,3.949147108,16,5,11.758,1205.1871376474,98.753284,0.223694,3.949147108,0,0,-3.35541,233.8, 1, -6.2,0,1,1024,1024,1540,1024,233.9,-31.2,97,3.941,3.916,3.901,0,0,0,0,32,1205.1871376474,98.753284,6,P-GPS,
